[
  { "title": "Andaman Islands", "lat": 12.38257107, "long": 92.82291051 },
  { "title": "Nicobar Islands", "lat": 7.83529075, "long": 93.51160124 },
  { "title": "Adilabad", "lat": 19.28451395, "long": 78.81321233 },
  { "title": "Anantapur", "lat": 14.31206556, "long": 77.46015845 },
  { "title": "Chittoor", "lat": 13.33109263, "long": 78.92763899 },
  { "title": "Cuddapah", "lat": 14.49028913, "long": 78.69613871 },
  { "title": "East Godavari", "lat": 16.78271832, "long": 82.24320747 },
  { "title": "Guntur", "lat": 15.88492577, "long": 80.58657614 },
  { "title": "Hyderabad", "lat": 17.38971556, "long": 78.46668889 },
  { "title": "Karimnagar", "lat": 18.51548319, "long": 79.43765429 },
  { "title": "Khammam", "lat": 17.68392133, "long": 80.67008644 },
  { "title": "Krishna", "lat": 16.14387275, "long": 81.14805061 },
  { "title": "Kurnool", "lat": 15.43759715, "long": 77.90086837 },
  { "title": "Mahbubnagar", "lat": 16.63954622, "long": 77.98933089 },
  { "title": "Medak", "lat": 17.88930498, "long": 78.13778902 },
  { "title": "Nalgonda", "lat": 17.11325052, "long": 79.16984454 },
  { "title": "Nellore", "lat": 13.89434407, "long": 80.14702672 },
  { "title": "Nizamabad", "lat": 18.42948585, "long": 78.07523491 },
  { "title": "Prakasam", "lat": 15.489039, "long": 80.1166579 },
  { "title": "Rangareddi", "lat": 17.24523587, "long": 78.05756828 },
  { "title": "Srikakulam", "lat": 18.570901, "long": 84.25874814 },
  { "title": "Vishakhapatnam", "lat": 17.64683903, "long": 83.01014036 },
  { "title": "Vizianagaram", "lat": 18.28329696, "long": 83.45982854 },
  { "title": "Warangal", "lat": 18.01752609, "long": 79.87422029 },
  { "title": "West Godavari", "lat": 16.63297944, "long": 81.45912991 },
  { "title": "Changlang", "lat": 27.36048479, "long": 96.37552645 },
  { "title": "East Kameng", "lat": 27.37119406, "long": 93.04741486 },
  { "title": "East Siang", "lat": 28.15382353, "long": 95.06499226 },
  { "title": "Kurung Kumey", "lat": 28.04853352, "long": 93.24531994 },
  { "title": "Lohit", "lat": 27.94678527, "long": 96.59670771 },
  { "title": "Lower Dibang Valley", "lat": 28.3265173, "long": 95.76567336 },
  { "title": "Lower Subansiri", "lat": 27.70849297, "long": 93.96226108 },
  { "title": "Papum Pare", "lat": 27.27352972, "long": 93.54468184 },
  { "title": "Tawang", "lat": 27.68068396, "long": 91.82504245 },
  { "title": "Tirap", "lat": 26.9440623, "long": 95.41470328 },
  { "title": "Upper Dibang Valley", "lat": 29.01994784, "long": 95.98776394 },
  { "title": "Upper Siang", "lat": 28.83092449, "long": 95.00155765 },
  { "title": "Upper Subansiri", "lat": 28.27719657, "long": 93.89914356 },
  { "title": "West Kameng", "lat": 27.46486582, "long": 92.6501575 },
  { "title": "West Siang", "lat": 28.10629692, "long": 94.53510344 },
  { "title": "Barpeta", "lat": 26.42787226, "long": 90.9791201 },
  { "title": "Bongaigaon", "lat": 26.45012522, "long": 90.67342962 },
  { "title": "Cachar", "lat": 24.81557067, "long": 92.8684965 },
  { "title": "Darrang", "lat": 26.58463216, "long": 92.04141338 },
  { "title": "Dhemaji", "lat": 27.58653344, "long": 94.71336909 },
  { "title": "Dhuburi", "lat": 26.04506148, "long": 89.98500822 },
  { "title": "Dibrugarh", "lat": 27.30612284, "long": 95.09982823 },
  { "title": "Goalpara", "lat": 26.01727778, "long": 90.59869892 },
  { "title": "Golaghat", "lat": 26.37721971, "long": 93.82583398 },
  { "title": "Hailakandi", "lat": 24.45749609, "long": 92.59154665 },
  { "title": "Jorhat", "lat": 26.76244824, "long": 94.30197723 },
  { "title": "Kamrup", "lat": 26.17093945, "long": 91.58863274 },
  { "title": "Karbi Anglong", "lat": 26.08966455, "long": 93.1153657 },
  { "title": "Karimganj", "lat": 24.69660712, "long": 92.36794986 },
  { "title": "Kokrajhar", "lat": 26.49724664, "long": 90.13997471 },
  { "title": "Lakhimpur", "lat": 27.14128806, "long": 94.07759493 },
  { "title": "Marigaon", "lat": 26.24650047, "long": 92.21949953 },
  { "title": "Nagaon", "lat": 26.26462171, "long": 92.93061911 },
  { "title": "Nalbari", "lat": 26.46323768, "long": 91.40598521 },
  { "title": "North Cachar Hills", "lat": 25.33829985, "long": 92.97740206 },
  { "title": "Sibsagar", "lat": 27.0276287, "long": 94.90025848 },
  { "title": "Sonitpur", "lat": 26.73514927, "long": 92.85197805 },
  { "title": "Tinsukia", "lat": 27.53549291, "long": 95.69055949 },
  { "title": "Araria", "lat": 26.21152812, "long": 87.30766555 },
  { "title": "Aurangabad", "lat": 24.77429187, "long": 84.45986024 },
  { "title": "Banka", "lat": 24.83235564, "long": 86.86649163 },
  { "title": "Begusarai", "lat": 25.54302613, "long": 86.12560144 },
  { "title": "Bhabua", "lat": 25.02156643, "long": 83.61128105 },
  { "title": "Bhagalpur", "lat": 25.27719289, "long": 87.04213814 },
  { "title": "Bhojpur", "lat": 25.50666439, "long": 84.49407803 },
  { "title": "Buxar", "lat": 25.48593019, "long": 84.08808082 },
  { "title": "Darbhanga", "lat": 26.14618772, "long": 85.97387352 },
  { "title": "Gaya", "lat": 24.72665415, "long": 84.94291218 },
  { "title": "Gopalganj", "lat": 26.44874364, "long": 84.34636127 },
  { "title": "Jamui", "lat": 24.7841838, "long": 86.26316298 },
  { "title": "Jehanabad", "lat": 25.15567905, "long": 84.92081245 },
  { "title": "Katihar", "lat": 25.56565356, "long": 87.70466084 },
  { "title": "Khagaria", "lat": 25.53558891, "long": 86.56593256 },
  { "title": "Kishanganj", "lat": 26.32433676, "long": 87.95045007 },
  { "title": "Lakhisarai", "lat": 25.18344932, "long": 86.12825701 },
  { "title": "Madhepura", "lat": 25.77341929, "long": 86.8978444 },
  { "title": "Madhubani", "lat": 26.41380538, "long": 86.1632836 },
  { "title": "Munger", "lat": 25.19853796, "long": 86.54173673 },
  { "title": "Muzaffarpur", "lat": 26.18664417, "long": 85.32745092 },
  { "title": "Nalanda", "lat": 25.22934551, "long": 85.48053114 },
  { "title": "Nawada", "lat": 24.82570884, "long": 85.61594569 },
  { "title": "Pashchim Champaran", "lat": 27.16064352, "long": 84.30265912 },
  { "title": "Patna", "lat": 25.40297115, "long": 85.31984336 },
  { "title": "Purba Champaran", "lat": 26.68129337, "long": 85.00382156 },
  { "title": "Purnia", "lat": 25.81714802, "long": 87.40447607 },
  { "title": "Rohtas", "lat": 24.99170461, "long": 83.93507627 },
  { "title": "Saharsa", "lat": 25.8212707, "long": 86.5467082 },
  { "title": "Samastipur", "lat": 25.79320556, "long": 85.94833323 },
  { "title": "Saran", "lat": 25.89656078, "long": 84.82266287 },
  { "title": "Sheikhpura", "lat": 25.12472437, "long": 85.77839391 },
  { "title": "Sheohar", "lat": 26.45838075, "long": 85.29539412 },
  { "title": "Sitamarhi", "lat": 26.5657007, "long": 85.61172491 },
  { "title": "Siwan", "lat": 26.1736372, "long": 84.33766553 },
  { "title": "Supaul", "lat": 26.28157894, "long": 86.78496465 },
  { "title": "Vaishali", "lat": 25.81347032, "long": 85.39247597 },
  { "title": "Chandigarh", "lat": 30.7426, "long": 76.75872466 },
  { "title": "Bastar", "lat": 19.39386675, "long": 81.52895127 },
  { "title": "Bilaspur", "lat": 22.35694298, "long": 81.99770351 },
  { "title": "Dantewada", "lat": 18.65385409, "long": 81.0720012 },
  { "title": "Dhamtari", "lat": 20.55491263, "long": 81.75691955 },
  { "title": "Durg", "lat": 21.19446385, "long": 81.3318164 },
  { "title": "Janjgir-Champa", "lat": 21.96109375, "long": 82.80495409 },
  { "title": "Jashpur", "lat": 22.77286168, "long": 83.87039621 },
  { "title": "Kanker", "lat": 20.13946129, "long": 81.06913081 },
  { "title": "Kawardha", "lat": 22.04800079, "long": 81.16271188 },
  { "title": "Korba", "lat": 22.4917125, "long": 82.57604327 },
  { "title": "Koriya", "lat": 23.50412777, "long": 82.12515636 },
  { "title": "Mahasamund", "lat": 21.22372704, "long": 82.65925427 },
  { "title": "Raigarh", "lat": 22.00826507, "long": 83.27797699 },
  { "title": "Raipur", "lat": 20.88603154, "long": 82.2003276 },
  { "title": "Raj Nandgaon", "lat": 21.05841473, "long": 80.78526694 },
  { "title": "Surguja", "lat": 23.32719279, "long": 83.23582494 },
  {
    "title": "Dadra and Nagar Haveli",
    "lat": 20.21513217,
    "long": 73.09454961
  },
  { "title": "Daman", "lat": 20.43161667, "long": 72.83923661 },
  { "title": "Junagadh", "lat": 20.72568199, "long": 70.8398564 },
  { "title": "Delhi", "lat": 28.6459443, "long": 77.12804518 },
  { "title": "North Goa", "lat": 15.54872342, "long": 73.80667998 },
  { "title": "South Goa", "lat": 15.19527866, "long": 73.9417926 },
  { "title": "Ahmadabad", "lat": 22.60542556, "long": 72.23898136 },
  { "title": "Amreli", "lat": 21.04832649, "long": 71.43457638 },
  { "title": "Anand", "lat": 22.28271821, "long": 72.57782052 },
  { "title": "Banas Kantha", "lat": 24.25853897, "long": 71.93205253 },
  { "title": "Bharuch", "lat": 21.75787276, "long": 72.67326347 },
  { "title": "Bhavnagar", "lat": 21.7021939, "long": 72.16272633 },
  { "title": "Dahod", "lat": 22.89799225, "long": 73.99170613 },
  { "title": "Gandhinagar", "lat": 23.19367979, "long": 72.6722168 },
  { "title": "Jamnagar", "lat": 22.41060041, "long": 69.62062006 },
  { "title": "Junagadh", "lat": 20.92952301, "long": 70.5473389 },
  { "title": "Kachchh", "lat": 23.48057203, "long": 68.82192301 },
  { "title": "Kheda", "lat": 22.88765313, "long": 73.01880352 },
  { "title": "Mahesana", "lat": 23.52935545, "long": 72.45545194 },
  { "title": "Narmada", "lat": 21.70666386, "long": 73.68403209 },
  { "title": "Navsari", "lat": 20.86697332, "long": 72.8618487 },
  { "title": "Panch Mahals", "lat": 22.80435607, "long": 73.61984598 },
  { "title": "Patan", "lat": 23.80634198, "long": 71.75162977 },
  { "title": "Porbandar", "lat": 21.55092352, "long": 69.71896988 },
  { "title": "Rajkot", "lat": 22.40603378, "long": 70.83679439 },
  { "title": "Sabar Kantha", "lat": 23.71803595, "long": 73.1363879 },
  { "title": "Surat", "lat": 21.25761373, "long": 72.93488716 },
  { "title": "Surendranagar", "lat": 22.82672007, "long": 71.48358741 },
  { "title": "The Dangs", "lat": 20.80163388, "long": 73.68835184 },
  { "title": "Vadodara", "lat": 22.26133739, "long": 73.4943301 },
  { "title": "Valsad", "lat": 20.44238232, "long": 72.91485848 },
  { "title": "Ambala", "lat": 30.35036723, "long": 76.94970311 },
  { "title": "Bhiwani", "lat": 28.72886806, "long": 76.02110226 },
  { "title": "Faridabad", "lat": 28.1487311, "long": 77.32718537 },
  { "title": "Fatehabad", "lat": 29.57298319, "long": 75.54608717 },
  { "title": "Gurgaon", "lat": 28.04389479, "long": 77.0193513 },
  { "title": "Hisar", "lat": 29.23628731, "long": 75.84324683 },
  { "title": "Jhajjar", "lat": 28.59651868, "long": 76.61137143 },
  { "title": "Jind", "lat": 29.45149822, "long": 76.29598576 },
  { "title": "Kaithal", "lat": 29.96068539, "long": 76.3769893 },
  { "title": "Karnal", "lat": 29.70320065, "long": 76.87488026 },
  { "title": "Kurukshetra", "lat": 30.0565266, "long": 76.7877468 },
  { "title": "Mahendragarh", "lat": 28.13521615, "long": 76.14018073 },
  { "title": "Panchkula", "lat": 30.70089714, "long": 76.97173238 },
  { "title": "Panipat", "lat": 29.34352134, "long": 76.92895915 },
  { "title": "Rewari", "lat": 28.19164715, "long": 76.55956008 },
  { "title": "Rohtak", "lat": 28.89251765, "long": 76.53123235 },
  { "title": "Sirsa", "lat": 29.63583446, "long": 74.9097048 },
  { "title": "Sonepat", "lat": 29.05805708, "long": 76.8558708 },
  { "title": "Yamuna Nagar", "lat": 30.26466183, "long": 77.31652822 },
  { "title": "Bilaspur", "lat": 31.37804229, "long": 76.65316079 },
  { "title": "Chamba", "lat": 32.66741815, "long": 76.39354063 },
  { "title": "Hamirpur", "lat": 31.67668481, "long": 76.49767089 },
  { "title": "Kangra", "lat": 32.14093603, "long": 76.41205911 },
  { "title": "Kinnaur", "lat": 31.60667184, "long": 78.51613736 },
  { "title": "Kullu", "lat": 31.90911922, "long": 77.40922649 },
  { "title": "Lahul and Spiti", "lat": 32.51717031, "long": 77.62470977 },
  { "title": "Mandi", "lat": 31.63580594, "long": 76.96556931 },
  { "title": "Shimla", "lat": 31.15572545, "long": 77.62573042 },
  { "title": "Sirmaur", "lat": 30.68276445, "long": 77.4318469 },
  { "title": "Solan", "lat": 31.03864312, "long": 76.94442141 },
  { "title": "Una", "lat": 31.58330388, "long": 76.18353932 },
  {
    "title": "Anantnag (Kashmir South)",
    "lat": 33.76027273,
    "long": 75.30390606
  },
  { "title": "Bagdam", "lat": 33.93258113, "long": 74.79798113 },
  {
    "title": "Baramula (Kashmir North)",
    "lat": 34.38125376,
    "long": 74.76359942
  },
  { "title": "Doda", "lat": 33.35961468, "long": 76.0716372 },
  { "title": "Jammu", "lat": 32.7131991, "long": 74.84775204 },
  { "title": "Kargil", "lat": 33.56599489, "long": 76.63675315 },
  { "title": "Kathua", "lat": 32.51781678, "long": 75.58901399 },
  {
    "title": "Kupwara (Muzaffarabad)",
    "lat": 34.59923474,
    "long": 74.21587684
  },
  { "title": "Ladakh (Leh)", "lat": 33.5857922, "long": 78.30725928 },
  { "title": "Pulwama", "lat": 33.88414419, "long": 75.0092186 },
  { "title": "Punch", "lat": 33.79124129, "long": 74.29593161 },
  { "title": "Rajauri", "lat": 33.27232199, "long": 74.40776879 },
  { "title": "Srinagar", "lat": 34.27312899, "long": 75.11021159 },
  { "title": "Udhampur", "lat": 33.04770671, "long": 75.15286951 },
  { "title": "Bokaro", "lat": 23.6814965, "long": 85.98398374 },
  { "title": "Chatra", "lat": 24.11619946, "long": 84.93295805 },
  { "title": "Deoghar", "lat": 24.33070101, "long": 86.75697632 },
  { "title": "Dhanbad", "lat": 23.85450909, "long": 86.40372925 },
  { "title": "Dumka", "lat": 24.27500613, "long": 87.2766245 },
  { "title": "Garhwa", "lat": 24.08211469, "long": 83.68664266 },
  { "title": "Giridih", "lat": 24.3057851, "long": 86.08710916 },
  { "title": "Godda", "lat": 24.8189, "long": 87.29417355 },
  { "title": "Gumla", "lat": 23.07853295, "long": 84.55056787 },
  { "title": "Hazaribag", "lat": 23.94324197, "long": 85.49441312 },
  { "title": "Jamtara", "lat": 23.97873318, "long": 86.9532508 },
  { "title": "Koderma", "lat": 24.55671943, "long": 85.71690919 },
  { "title": "Latehar", "lat": 23.72511186, "long": 84.48298743 },
  { "title": "Lohardaga", "lat": 23.48879604, "long": 84.66051691 },
  { "title": "Pakur", "lat": 24.57260428, "long": 87.69691969 },
  { "title": "Palamu", "lat": 24.19692597, "long": 84.20310843 },
  { "title": "Pashchim Singhbhum", "lat": 22.39940849, "long": 85.5409841 },
  { "title": "Purba Singhbhum", "lat": 22.59133436, "long": 86.50910135 },
  { "title": "Ranchi", "lat": 23.18423506, "long": 85.31781937 },
  { "title": "Sahibganj", "lat": 24.9366799, "long": 87.68264098 },
  { "title": "Saraikela Kharsawan", "lat": 22.85591392, "long": 85.89614919 },
  { "title": "Simdega", "lat": 22.60876039, "long": 84.59193692 },
  { "title": "Bagalkot", "lat": 16.15860676, "long": 75.64526071 },
  { "title": "Bangalore Rural", "lat": 12.93682709, "long": 77.47369315 },
  { "title": "Bangalore Urban", "lat": 12.90192493, "long": 77.58685596 },
  { "title": "Belgaum", "lat": 16.16107219, "long": 74.72329042 },
  { "title": "Bellary", "lat": 15.07437755, "long": 76.47228471 },
  { "title": "Bidar", "lat": 17.95036173, "long": 77.19459962 },
  { "title": "Bijapur", "lat": 16.84015317, "long": 75.95909167 },
  { "title": "Chamrajnagar", "lat": 11.95248, "long": 77.0238496 },
  { "title": "Chikmagalur", "lat": 13.42528829, "long": 75.67626502 },
  { "title": "Chitradurga", "lat": 14.2910222, "long": 76.57821957 },
  { "title": "Dakshin Kannad", "lat": 12.89120455, "long": 74.96216278 },
  { "title": "Davanagere", "lat": 14.33041459, "long": 75.91723841 },
  { "title": "Dharwad", "lat": 15.34383138, "long": 75.13831264 },
  { "title": "Gadag", "lat": 15.50712826, "long": 75.64861303 },
  { "title": "Gulbarga", "lat": 17.07045952, "long": 76.8750385 },
  { "title": "Hassan", "lat": 12.94509875, "long": 76.1104955 },
  { "title": "Haveri", "lat": 14.73758281, "long": 75.39612306 },
  { "title": "Kodagu", "lat": 12.39684468, "long": 75.79336596 },
  { "title": "Kolar", "lat": 13.31279988, "long": 78.01376948 },
  { "title": "Koppal", "lat": 15.65125327, "long": 76.16170486 },
  { "title": "Mandya", "lat": 12.57490181, "long": 76.81570099 },
  { "title": "Mysore", "lat": 12.24810026, "long": 76.52881803 },
  { "title": "Raichur", "lat": 16.05079535, "long": 76.87368606 },
  { "title": "Shimoga", "lat": 14.06384589, "long": 75.17882078 },
  { "title": "Tumkur", "lat": 13.59246776, "long": 77.02297966 },
  { "title": "Udupi", "lat": 13.45040423, "long": 74.7200999 },
  { "title": "Uttar Kannand", "lat": 14.53895798, "long": 74.35229081 },
  { "title": "Alappuzha", "lat": 9.542602966, "long": 76.38010796 },
  { "title": "Ernakulam", "lat": 10.0048793, "long": 76.26957729 },
  { "title": "Idukki", "lat": 9.804809639, "long": 77.04586642 },
  { "title": "Kannur", "lat": 11.94152308, "long": 75.35209892 },
  { "title": "Kasaragod", "lat": 12.3331031, "long": 75.07768497 },
  { "title": "Kollam", "lat": 8.929388821, "long": 76.63607759 },
  { "title": "Kottayam", "lat": 9.643701174, "long": 76.46059673 },
  { "title": "Kozhikode", "lat": 11.39292427, "long": 75.7115872 },
  { "title": "Malappuram", "lat": 10.97329876, "long": 75.93910776 },
  { "title": "Palakkad", "lat": 10.7849269, "long": 76.49980491 },
  { "title": "Pattanamtitta", "lat": 9.291312393, "long": 76.86412329 },
  { "title": "Thiruvananthapuram", "lat": 8.537101759, "long": 76.88711503 },
  { "title": "Thrissur", "lat": 10.45893265, "long": 76.12321941 },
  { "title": "Wayanad", "lat": 11.71527746, "long": 76.07587007 },
  { "title": "Kavaratti", "lat": 10.43639053, "long": 72.82992744 },
  { "title": "Anuppur", "lat": 23.1818422, "long": 81.8656 },
  { "title": "Ashoknagar", "lat": 24.63098846, "long": 77.82974494 },
  { "title": "Balaghat", "lat": 21.80020721, "long": 80.42170053 },
  { "title": "Barwani", "lat": 21.70213571, "long": 74.9100472 },
  { "title": "Betul", "lat": 21.96462632, "long": 77.78734282 },
  { "title": "Bhind", "lat": 26.35951126, "long": 78.76183243 },
  { "title": "Bhopal", "lat": 23.48072614, "long": 77.39246623 },
  { "title": "Burhanpur", "lat": 21.36456725, "long": 76.24460479 },
  { "title": "Chhatarpur", "lat": 24.81363738, "long": 79.56449299 },
  { "title": "Chhindwara", "lat": 22.22796697, "long": 78.76413136 },
  { "title": "Damoh", "lat": 23.76624408, "long": 79.47049303 },
  { "title": "Datia", "lat": 25.9022644, "long": 78.63916571 },
  { "title": "Dewas", "lat": 22.785111, "long": 76.46088806 },
  { "title": "Dhar", "lat": 22.57268172, "long": 75.11056207 },
  { "title": "Dindori", "lat": 22.83738437, "long": 81.04332967 },
  { "title": "East Nimar", "lat": 22.0989856, "long": 76.55805504 },
  { "title": "Guna", "lat": 24.49043927, "long": 77.2235896 },
  { "title": "Gwalior", "lat": 26.04074442, "long": 78.12782433 },
  { "title": "Harda", "lat": 22.22765978, "long": 77.07022572 },
  { "title": "Hoshangabad", "lat": 22.5952688, "long": 78.02168095 },
  { "title": "Indore", "lat": 22.68026575, "long": 75.91338013 },
  { "title": "Jabalpur", "lat": 23.18525572, "long": 79.98328755 },
  { "title": "Jhabua", "lat": 22.41957802, "long": 74.40921617 },
  { "title": "Katni", "lat": 23.72441623, "long": 80.33819666 },
  { "title": "Mandla", "lat": 22.70348712, "long": 80.38600544 },
  { "title": "Mandsaur", "lat": 24.19278764, "long": 75.43588668 },
  { "title": "Morena", "lat": 26.37313505, "long": 77.88447341 },
  { "title": "Narsinghpur", "lat": 22.95134468, "long": 79.00202423 },
  { "title": "Neemuch", "lat": 24.70311893, "long": 75.06608187 },
  { "title": "Panna", "lat": 24.45132584, "long": 80.21133001 },
  { "title": "Raisen", "lat": 23.29251821, "long": 78.16305496 },
  { "title": "Rajgarh", "lat": 23.78549903, "long": 76.66431224 },
  { "title": "Ratlam", "lat": 23.50356229, "long": 75.14895782 },
  { "title": "Rewa", "lat": 24.86118463, "long": 81.57572465 },
  { "title": "Sagar", "lat": 23.80031871, "long": 78.71940358 },
  { "title": "Satna", "lat": 24.62777622, "long": 80.75547049 },
  { "title": "Sehore", "lat": 22.92971997, "long": 77.06780203 },
  { "title": "Seoni", "lat": 22.33230488, "long": 79.66053864 },
  { "title": "Shahdol", "lat": 23.44859865, "long": 81.45968318 },
  { "title": "Shajapur", "lat": 23.56662032, "long": 76.33555181 },
  { "title": "Sheopur", "lat": 25.78014811, "long": 77.16911117 },
  { "title": "Shivpuri", "lat": 25.37802452, "long": 77.74861601 },
  { "title": "Sidhi", "lat": 24.1754719, "long": 82.10537834 },
  { "title": "Tikamgarh", "lat": 25.14099852, "long": 78.89357065 },
  { "title": "Ujjain", "lat": 23.31928886, "long": 75.80383718 },
  { "title": "Umaria", "lat": 23.59601063, "long": 80.90879477 },
  { "title": "Vidisha", "lat": 23.82838308, "long": 77.90135076 },
  { "title": "West Nimar", "lat": 22.02714, "long": 75.87343742 },
  { "title": "Ahmednagar", "lat": 19.21759903, "long": 74.69220261 },
  { "title": "Akola", "lat": 20.74631048, "long": 77.1212232 },
  { "title": "Amravati", "lat": 21.16520992, "long": 77.67583503 },
  { "title": "Aurangabad", "lat": 20.09792288, "long": 75.32072197 },
  { "title": "Bhandara", "lat": 21.21179265, "long": 80.109502 },
  { "title": "Bid", "lat": 18.95235334, "long": 75.69319706 },
  { "title": "Buldana", "lat": 20.56680611, "long": 76.3901788 },
  { "title": "Chandrapur", "lat": 20.09560909, "long": 79.3155638 },
  { "title": "Dhule", "lat": 21.27401869, "long": 74.58719072 },
  { "title": "Garhchiroli", "lat": 19.7955461, "long": 80.30965564 },
  { "title": "Gondiya", "lat": 21.22500841, "long": 80.17522699 },
  { "title": "Greater Bombay", "lat": 19.08506979, "long": 72.84261961 },
  { "title": "Hingoli", "lat": 19.59525302, "long": 77.09239413 },
  { "title": "Jalgaon", "lat": 20.88289434, "long": 75.55140422 },
  { "title": "Jalna", "lat": 19.98461253, "long": 75.98473607 },
  { "title": "Kolhapur", "lat": 16.44881302, "long": 74.12897151 },
  { "title": "Latur", "lat": 18.34868727, "long": 76.75812608 },
  { "title": "Nagpur", "lat": 21.19655686, "long": 79.02166176 },
  { "title": "Nanded", "lat": 19.20931698, "long": 77.6829049 },
  { "title": "Nandurbar", "lat": 21.52317563, "long": 74.32638757 },
  { "title": "Nashik", "lat": 20.26691287, "long": 74.03824168 },
  { "title": "Osmanabad", "lat": 18.19459456, "long": 75.99495575 },
  { "title": "Parbhani", "lat": 19.31032425, "long": 76.70163339 },
  { "title": "Pune", "lat": 18.51696171, "long": 74.12922882 },
  { "title": "Raigarh", "lat": 18.45325764, "long": 73.00906094 },
  { "title": "Ratnagiri", "lat": 17.21019507, "long": 73.25725894 },
  { "title": "Sangli", "lat": 17.15493018, "long": 74.70713823 },
  { "title": "Satara", "lat": 17.6737909, "long": 74.18052064 },
  { "title": "Sindhudurg", "lat": 16.17094805, "long": 73.51329008 },
  { "title": "Solapur", "lat": 17.83735794, "long": 75.42394824 },
  { "title": "Thane", "lat": 19.69876775, "long": 72.79882743 },
  { "title": "Wardha", "lat": 20.80743024, "long": 78.57259106 },
  { "title": "Washim", "lat": 20.28228239, "long": 77.25502394 },
  { "title": "Yavatmal", "lat": 20.04258347, "long": 78.05326372 },
  { "title": "Bishnupur", "lat": 24.50712112, "long": 93.8246236 },
  { "title": "Chandel", "lat": 24.2635813, "long": 94.09443844 },
  { "title": "Churachandpur", "lat": 24.30309719, "long": 93.38671506 },
  { "title": "East Imphal", "lat": 24.82105807, "long": 93.66951205 },
  { "title": "Senapati", "lat": 25.08465586, "long": 94.03366234 },
  { "title": "Tamenglong", "lat": 24.98312942, "long": 93.4945074 },
  { "title": "Thoubal", "lat": 24.54539255, "long": 93.97959894 },
  { "title": "Ukhrul", "lat": 25.05900315, "long": 94.44129567 },
  { "title": "West Imphal", "lat": 24.79400559, "long": 93.8885905 },
  { "title": "East Garo Hills", "lat": 25.82728228, "long": 90.64684925 },
  { "title": "East Khasi Hills", "lat": 25.30376389, "long": 91.7592252 },
  { "title": "Jaintia Hills", "lat": 25.33959557, "long": 92.3760816 },
  { "title": "Ri-Bhoi", "lat": 25.897066, "long": 91.84516159 },
  { "title": "South Garo Hills", "lat": 25.24056858, "long": 90.64560349 },
  { "title": "West Garo Hills", "lat": 25.49528519, "long": 90.03709947 },
  { "title": "West Khasi Hills", "lat": 25.50088993, "long": 91.25364542 },
  { "title": "Aizawl", "lat": 23.90781335, "long": 92.85359459 },
  { "title": "Champhai", "lat": 23.54166581, "long": 93.24221799 },
  { "title": "Kolasib", "lat": 24.20200043, "long": 92.73470391 },
  { "title": "Lawngtlai", "lat": 22.36102843, "long": 92.66964157 },
  { "title": "Lunglei", "lat": 23.00771704, "long": 92.63512555 },
  { "title": "Mamit", "lat": 23.73852943, "long": 92.43308038 },
  { "title": "Saiha", "lat": 22.35744801, "long": 93.02827931 },
  { "title": "Serchhip", "lat": 23.26386471, "long": 92.9141585 },
  { "title": "Dimapur", "lat": 25.81417681, "long": 93.75074058 },
  { "title": "Kohima", "lat": 25.60311429, "long": 93.78600658 },
  { "title": "Mokokchung", "lat": 26.47891176, "long": 94.52242601 },
  { "title": "Mon", "lat": 26.69207374, "long": 95.03072989 },
  { "title": "Phek", "lat": 25.63272987, "long": 94.56814564 },
  { "title": "Tuensang", "lat": 26.21104453, "long": 94.85809881 },
  { "title": "Wokha", "lat": 26.20261155, "long": 94.19908152 },
  { "title": "Zunheboto", "lat": 26.02817821, "long": 94.50026667 },
  { "title": "Angul", "lat": 21.1207062, "long": 84.99839213 },
  { "title": "Baleshwar", "lat": 21.48570932, "long": 87.08085828 },
  { "title": "Baragarh", "lat": 21.13240638, "long": 83.264445 },
  { "title": "Bhadrak", "lat": 20.95262735, "long": 86.81496205 },
  { "title": "Bolangir", "lat": 20.6163003, "long": 83.2152006 },
  { "title": "Boudh", "lat": 20.58319074, "long": 84.12363307 },
  { "title": "Cuttack", "lat": 20.40764065, "long": 85.77768102 },
  { "title": "Deogarh", "lat": 21.43146202, "long": 84.81452481 },
  { "title": "Dhenkanal", "lat": 20.79887159, "long": 85.53226836 },
  { "title": "Gajapati", "lat": 19.12108088, "long": 84.14015092 },
  { "title": "Ganjam", "lat": 19.26326176, "long": 84.8029771 },
  { "title": "Jagatsinghpur", "lat": 20.11444318, "long": 86.43265259 },
  { "title": "Jajpur", "lat": 20.85324909, "long": 86.15277301 },
  { "title": "Jharsuguda", "lat": 21.82705857, "long": 83.93581682 },
  { "title": "Kalahandi", "lat": 19.78425309, "long": 83.11240438 },
  { "title": "Kandhamal", "lat": 20.09287862, "long": 84.02216353 },
  { "title": "Kendrapara", "lat": 20.60631982, "long": 86.83763248 },
  { "title": "Keonjhar", "lat": 21.4922574, "long": 85.76276987 },
  { "title": "Khordha", "lat": 20.05416232, "long": 85.52234834 },
  { "title": "Koraput", "lat": 18.82627795, "long": 82.8127847 },
  { "title": "Malkangiri", "lat": 18.2522793, "long": 81.98293636 },
  { "title": "Mayurbhanj", "lat": 21.89762155, "long": 86.40304081 },
  { "title": "Nabarangpur", "lat": 19.51304717, "long": 82.4204196 },
  { "title": "Nayagarh", "lat": 20.19289562, "long": 85.056147 },
  { "title": "Nuapada", "lat": 20.47130951, "long": 82.59152537 },
  { "title": "Puri", "lat": 19.83509175, "long": 85.8669899 },
  { "title": "Rayagada", "lat": 19.29284002, "long": 83.4586012 },
  { "title": "Sambalpur", "lat": 21.51575238, "long": 84.34958483 },
  { "title": "Sonepur", "lat": 20.89080329, "long": 83.76852635 },
  { "title": "Sundargarh", "lat": 22.06354819, "long": 84.50524819 },
  { "title": "Karaikal", "lat": 10.87616173, "long": 79.82369794 },
  { "title": "Mahe", "lat": 12.00642079, "long": 75.28275022 },
  { "title": "Puducherry", "lat": 11.88780627, "long": 79.79710961 },
  { "title": "Yanam", "lat": 16.70769565, "long": 82.26187304 },
  { "title": "Amritsar", "lat": 31.54867982, "long": 74.79883857 },
  { "title": "Bathinda", "lat": 30.19052461, "long": 75.05685898 },
  { "title": "Faridkot", "lat": 30.59118725, "long": 74.79751554 },
  { "title": "Fatehgarh Sahib", "lat": 30.64290947, "long": 76.36208395 },
  { "title": "Firozpur", "lat": 30.63407535, "long": 74.40245732 },
  { "title": "Gurdaspur", "lat": 32.04283371, "long": 75.32040644 },
  { "title": "Hoshiarpur", "lat": 31.5515717, "long": 75.84698574 },
  { "title": "Jalandhar", "lat": 31.25033691, "long": 75.54400351 },
  { "title": "Kapurthala", "lat": 31.33659264, "long": 75.47641166 },
  { "title": "Ludhiana", "lat": 30.76596397, "long": 75.83110852 },
  { "title": "Mansa", "lat": 29.91954771, "long": 75.43049229 },
  { "title": "Moga", "lat": 30.75654007, "long": 75.16008451 },
  { "title": "Muktsar", "lat": 30.31243303, "long": 74.55187477 },
  { "title": "Nawan Shehar", "lat": 31.13344545, "long": 76.10192436 },
  { "title": "Patiala", "lat": 30.21454038, "long": 76.27505894 },
  { "title": "Rupnagar", "lat": 30.91093733, "long": 76.53743501 },
  { "title": "Sangrur", "lat": 30.1850452, "long": 75.89437014 },
  { "title": "Ajmer", "lat": 26.19930038, "long": 74.69904192 },
  { "title": "Alwar", "lat": 27.55271738, "long": 76.65359631 },
  { "title": "Banswara", "lat": 23.45364203, "long": 74.44246868 },
  { "title": "Baran", "lat": 24.98023243, "long": 76.86210652 },
  { "title": "Barmer", "lat": 25.77070908, "long": 71.50297126 },
  { "title": "Bharatpur", "lat": 27.32411858, "long": 77.21752077 },
  { "title": "Bhilwara", "lat": 25.45119768, "long": 74.63947596 },
  { "title": "Bikaner", "lat": 28.12489068, "long": 73.26943323 },
  { "title": "Bundi", "lat": 25.48580716, "long": 75.79984074 },
  { "title": "Chittaurgarh", "lat": 24.63162376, "long": 74.80010998 },
  { "title": "Churu", "lat": 28.29330376, "long": 74.65846427 },
  { "title": "Dausa", "lat": 26.91234818, "long": 76.57342097 },
  { "title": "Dhaulpur", "lat": 26.72397055, "long": 77.7447622 },
  { "title": "Dungarpur", "lat": 23.75104808, "long": 73.84765641 },
  { "title": "Ganganagar", "lat": 29.25678541, "long": 73.56192303 },
  { "title": "Hanumangarh", "lat": 29.18133518, "long": 74.74632573 },
  { "title": "Jaipur", "lat": 27.03345929, "long": 75.77117286 },
  { "title": "Jaisalmer", "lat": 26.86900839, "long": 71.18371877 },
  { "title": "Jalor", "lat": 25.07578094, "long": 72.18647262 },
  { "title": "Jhalawar", "lat": 24.24725541, "long": 76.11242892 },
  { "title": "Jhunjhunun", "lat": 28.13517401, "long": 75.52840894 },
  { "title": "Jodhpur", "lat": 26.67846084, "long": 73.00450847 },
  { "title": "Karauli", "lat": 26.51901556, "long": 76.96081818 },
  { "title": "Kota", "lat": 25.17571808, "long": 76.18618928 },
  { "title": "Nagaur", "lat": 27.07862016, "long": 74.14215667 },
  { "title": "Pali", "lat": 25.80490394, "long": 73.55285641 },
  { "title": "Rajsamand", "lat": 25.24894767, "long": 73.96570216 },
  { "title": "Sawai Madhopur", "lat": 26.25108118, "long": 76.42192839 },
  { "title": "Sikar", "lat": 27.64644059, "long": 75.29317423 },
  { "title": "Sirohi", "lat": 24.79769053, "long": 72.75309132 },
  { "title": "Tonk", "lat": 26.15393507, "long": 75.79192216 },
  { "title": "Udaipur", "lat": 24.44076752, "long": 73.8402984 },
  { "title": "East", "lat": 27.29600353, "long": 88.74908392 },
  { "title": "North Sikkim", "lat": 27.81381005, "long": 88.54200565 },
  { "title": "South Sikkim", "lat": 27.27802162, "long": 88.37538595 },
  { "title": "West Sikkim", "lat": 27.3359816, "long": 88.158012 },
  { "title": "Ariyalur", "lat": 11.19051484, "long": 79.22249644 },
  { "title": "Chennai", "lat": 13.05809891, "long": 80.28139152 },
  { "title": "Coimbatore", "lat": 10.871377, "long": 77.07619012 },
  { "title": "Cuddalore", "lat": 11.57587301, "long": 79.63002365 },
  { "title": "Dharmapuri", "lat": 12.3001412, "long": 78.11509813 },
  { "title": "Dindigul", "lat": 10.37780139, "long": 77.7801128 },
  { "title": "Erode", "lat": 11.26701216, "long": 77.42034335 },
  { "title": "Kancheepuram", "lat": 12.49642476, "long": 80.0882036 },
  { "title": "Kanniyakumari", "lat": 8.1834663, "long": 77.32053064 },
  { "title": "Karur", "lat": 10.79532777, "long": 78.08749687 },
  { "title": "Madurai", "lat": 9.904313833, "long": 78.01366033 },
  { "title": "Nagapattinam", "lat": 10.78946816, "long": 79.79437299 },
  { "title": "Namakkal", "lat": 11.33766638, "long": 78.14624841 },
  { "title": "Nilgiris", "lat": 11.44236166, "long": 76.66146422 },
  { "title": "Perambalur", "lat": 11.26013776, "long": 78.86034012 },
  { "title": "Pudukkottai", "lat": 10.13051482, "long": 79.05444484 },
  { "title": "Ramanathapuram", "lat": 9.312869952, "long": 78.99185362 },
  { "title": "Salem", "lat": 11.6293242, "long": 78.2478258 },
  { "title": "Sivaganga", "lat": 9.960306581, "long": 78.56535729 },
  { "title": "Thanjavur", "lat": 10.38769226, "long": 79.31948691 },
  { "title": "Theni", "lat": 9.924066667, "long": 77.43458833 },
  { "title": "Thiruvallur", "lat": 13.2758581, "long": 80.19724703 },
  { "title": "Thiruvarur", "lat": 10.36892741, "long": 79.60322894 },
  { "title": "Thoothukudi", "lat": 8.72096117, "long": 78.13832691 },
  { "title": "Tiruchchirappalli", "lat": 10.83784132, "long": 78.54729002 },
  { "title": "Tirunelveli Kattabo", "lat": 8.457430704, "long": 77.70549636 },
  { "title": "Tiruvannamalai", "lat": 12.41931895, "long": 79.23265632 },
  { "title": "Vellore", "lat": 12.78488263, "long": 79.02643284 },
  { "title": "Villupuram", "lat": 12.06557135, "long": 79.68989101 },
  { "title": "Virudhunagar", "lat": 9.468872196, "long": 77.87641469 },
  { "title": "Dhalai", "lat": 23.78136048, "long": 91.94654283 },
  { "title": "North Tripura", "lat": 24.12173976, "long": 92.17842538 },
  { "title": "South Tripura", "lat": 23.2118741, "long": 91.60658076 },
  { "title": "West Tripura", "lat": 23.78016624, "long": 91.41310789 },
  { "title": "Agra", "lat": 26.99512975, "long": 78.05278292 },
  { "title": "Aligarh", "lat": 27.93748577, "long": 78.00146831 },
  { "title": "Allahabad", "lat": 25.39203866, "long": 82.05172447 },
  { "title": "Ambedkar Nagar", "lat": 26.39119026, "long": 82.68282143 },
  { "title": "Auraiya", "lat": 26.66892394, "long": 79.42637057 },
  { "title": "Azamgarh", "lat": 26.00829095, "long": 83.01220251 },
  { "title": "Badaun", "lat": 28.08595673, "long": 78.997108 },
  { "title": "Baghpat", "lat": 29.0457935, "long": 77.302663 },
  { "title": "Bahraich", "lat": 27.6917763, "long": 81.46779783 },
  { "title": "Ballia", "lat": 25.86075638, "long": 84.03651979 },
  { "title": "Balrampur", "lat": 27.44907654, "long": 82.47158326 },
  { "title": "Banda", "lat": 25.3518859, "long": 80.52487391 },
  { "title": "Bara Banki", "lat": 26.92277703, "long": 81.35762351 },
  { "title": "Bareilly", "lat": 28.51101941, "long": 79.43187072 },
  { "title": "Basti", "lat": 26.83388045, "long": 82.69790591 },
  { "title": "Bijnor", "lat": 29.31397426, "long": 78.45098815 },
  { "title": "Bulandshahr", "lat": 28.34875862, "long": 78.01082759 },
  { "title": "Chandauli", "lat": 25.11808596, "long": 83.25307063 },
  { "title": "Chitrakoot", "lat": 25.15992462, "long": 81.07666088 },
  { "title": "Deoria", "lat": 26.42218857, "long": 83.82440707 },
  { "title": "Etah", "lat": 27.59115531, "long": 78.70021858 },
  { "title": "Etawah", "lat": 26.7881767, "long": 79.07621806 },
  { "title": "Faizabad", "lat": 26.60589185, "long": 82.00783531 },
  { "title": "Farrukhabad", "lat": 27.45063298, "long": 79.44062846 },
  { "title": "Fatehpur", "lat": 25.8374362, "long": 80.85416203 },
  { "title": "Firozabad", "lat": 27.20963993, "long": 78.42660625 },
  { "title": "Gautam Buddha Nagar", "lat": 28.39331104, "long": 77.52462468 },
  { "title": "Ghaziabad", "lat": 28.74997309, "long": 77.67441879 },
  { "title": "Ghazipur", "lat": 25.62472478, "long": 83.53608546 },
  { "title": "Gonda", "lat": 27.15721555, "long": 82.0226888 },
  { "title": "Gorakhpur", "lat": 26.63315887, "long": 83.35495604 },
  { "title": "Hamirpur", "lat": 25.73815838, "long": 79.8261948 },
  { "title": "Hardoi", "lat": 27.33740909, "long": 80.26411768 },
  { "title": "Hathras", "lat": 27.57814661, "long": 78.18251084 },
  { "title": "Jalaun", "lat": 26.06795459, "long": 79.36686911 },
  { "title": "Jaunpur", "lat": 25.70141281, "long": 82.54315352 },
  { "title": "Jhansi", "lat": 25.45581535, "long": 78.89954581 },
  { "title": "Jyotiba Phule Nagar", "lat": 28.87049898, "long": 78.39009365 },
  { "title": "Kannauj", "lat": 26.99398862, "long": 79.6443794 },
  { "title": "Kanpur Dehat", "lat": 26.43047641, "long": 79.98710083 },
  { "title": "Kanpur", "lat": 26.37046935, "long": 80.29251573 },
  { "title": "Kaushambi", "lat": 25.53587532, "long": 81.41811282 },
  { "title": "Kushinagar", "lat": 26.89253068, "long": 83.92261542 },
  { "title": "Lakhimpur Kheri", "lat": 28.09185401, "long": 80.64732466 },
  { "title": "Lalitpur", "lat": 24.58877161, "long": 78.60082331 },
  { "title": "Lucknow", "lat": 26.83823359, "long": 80.89706027 },
  { "title": "Maharajganj", "lat": 27.17709911, "long": 83.46127857 },
  { "title": "Mahoba", "lat": 25.3452967, "long": 79.67863003 },
  { "title": "Mainpuri", "lat": 27.17386862, "long": 79.03501851 },
  { "title": "Mathura", "lat": 27.59390433, "long": 77.62153417 },
  { "title": "Mau", "lat": 26.01082204, "long": 83.50582654 },
  { "title": "Meerut", "lat": 29.02957626, "long": 77.80611006 },
  { "title": "Mirzapur", "lat": 25.10207959, "long": 82.60126629 },
  { "title": "Moradabad", "lat": 28.85177041, "long": 78.73580193 },
  { "title": "Muzaffarnagar", "lat": 29.47050798, "long": 77.64017848 },
  { "title": "Pilibhit", "lat": 28.52024175, "long": 79.90103974 },
  { "title": "Pratapgarh", "lat": 25.86484273, "long": 81.93530049 },
  { "title": "Rae Bareli", "lat": 26.25390284, "long": 81.22260463 },
  { "title": "Rampur", "lat": 28.83244727, "long": 79.10977333 },
  { "title": "Saharanpur", "lat": 30.03381165, "long": 77.59905148 },
  { "title": "Sant Kabir Nagar", "lat": 26.79159652, "long": 83.03877643 },
  { "title": "Sant Ravi Das Nagar", "lat": 25.36457874, "long": 82.43494991 },
  { "title": "Shahjahanpur", "lat": 27.99138935, "long": 79.83022753 },
  { "title": "Shravasti", "lat": 27.60491788, "long": 81.79319777 },
  { "title": "Siddharth Nagar", "lat": 27.20738484, "long": 82.78664992 },
  { "title": "Sitapur", "lat": 27.50199596, "long": 80.85288881 },
  { "title": "Sonbhadra", "lat": 24.46693269, "long": 83.06816325 },
  { "title": "Sultanpur", "lat": 26.28463864, "long": 82.05710457 },
  { "title": "Unnao", "lat": 26.63163991, "long": 80.63677329 },
  { "title": "Varanasi", "lat": 25.36057089, "long": 82.82529667 },
  { "title": "Almora", "lat": 29.68353213, "long": 79.50165064 },
  { "title": "Bageshwar", "lat": 29.98703393, "long": 79.83954354 },
  { "title": "Chamoli", "lat": 30.58338611, "long": 79.56281096 },
  { "title": "Champawat", "lat": 29.29142394, "long": 80.07720212 },
  { "title": "Dehra Dun", "lat": 30.53333341, "long": 77.90884125 },
  { "title": "Haridwar", "lat": 29.88605766, "long": 77.92980068 },
  { "title": "Naini Tal", "lat": 29.33637053, "long": 79.49979118 },
  { "title": "Pauri Garhwal", "lat": 29.97806755, "long": 78.77450163 },
  { "title": "Pithoragarh", "lat": 30.14720632, "long": 80.34229231 },
  { "title": "Rudra Prayag", "lat": 30.55657756, "long": 79.09422047 },
  { "title": "Tehri Garhwal", "lat": 30.46370092, "long": 78.48783793 },
  { "title": "Udham Singh Nagar", "lat": 29.02779578, "long": 79.45629005 },
  { "title": "Uttarkashi", "lat": 30.96895855, "long": 78.56880615 },
  { "title": "Bankura", "lat": 23.08128089, "long": 87.12640054 },
  { "title": "Barddhaman", "lat": 23.44445389, "long": 87.81505811 },
  { "title": "Birbhum", "lat": 24.06389343, "long": 87.65153089 },
  { "title": "Dakshin Dinajpur", "lat": 25.34209436, "long": 88.6982168 },
  { "title": "Darjiling", "lat": 26.83961957, "long": 88.33145067 },
  { "title": "East Midnapore", "lat": 21.99199725, "long": 87.92280826 },
  { "title": "Haora", "lat": 22.40167417, "long": 87.99421177 },
  { "title": "Hugli", "lat": 22.87929265, "long": 88.00010265 },
  { "title": "Jalpaiguri", "lat": 26.62642031, "long": 89.04154375 },
  { "title": "Kochbihar", "lat": 26.25051611, "long": 89.30613827 },
  { "title": "Kolkata", "lat": 22.55058148, "long": 88.35276481 },
  { "title": "Maldah", "lat": 25.08026803, "long": 88.17191685 },
  { "title": "Murshidabad", "lat": 24.25950655, "long": 88.1681686 },
  { "title": "Nadia", "lat": 23.56410971, "long": 88.58293035 },
  { "title": "North 24 Parganas", "lat": 22.06238845, "long": 88.87793961 },
  { "title": "Puruliya", "lat": 23.25419233, "long": 86.39685329 },
  { "title": "South 24 Parganas", "lat": 21.85442751, "long": 88.44536971 },
  { "title": "Uttar Dinajpur", "lat": 26.04461917, "long": 88.23595232 },
  { "title": "West Midnapore", "lat": 22.35489692, "long": 87.23101441 }
]
